{
"type": "FeatureCollection",
"name": "obs_location",
"features": [
{ "type": "Feature", "properties": { "name": "Chisapani" }, "geometry": { "type": "Point", "coordinates": [ 81.28, 28.65 ] } },
{ "type": "Feature", "properties": { "name": "Asaraghat" }, "geometry": { "type": "Point", "coordinates": [ 81.44, 28.95 ] } },
{ "type": "Feature", "properties": { "name": "Nepalgunj" }, "geometry": { "type": "Point", "coordinates": [ 81.67, 28.1 ] } },
{ "type": "Feature", "properties": { "name": "Dipayal" }, "geometry": { "type": "Point", "coordinates": [ 80.95, 29.25 ] } },
{ "type": "Feature", "properties": { "name": "Chitreghat" }, "geometry": { "type": "Point", "coordinates": [ 81.21, 29.15 ] } },
{ "type": "Feature", "properties": { "name": "Jajarkot" }, "geometry": { "type": "Point", "coordinates": [ 82.2, 28.7 ] } },
{ "type": "Feature", "properties": { "name": "Dailekh" }, "geometry": { "type": "Point", "coordinates": [ 81.71, 28.84 ] } }
]
}
